Yaw;Pitch;Roll;Latitude;Longitude;Altitude;Velocity Body X ;Velocity Body Y;Angular Rate Z;Temperature;pH;Pressure;Depth;Actual Conductivity;Resistivity;Salinity;ORP;Dissolved Oxygen Concentration;Time
-88.771;4.195;2.164;-16.38810778;-72.19470709;1378.865;0.000855278;-0.00850048;-0.015142;0;0;0;0;0;0;0;0;0;0
-89.024;4.309;2.422;-16.38810761;-72.19470698;1378.856;-0.000191494;0.008556795;-0.01284;0;0;0;0;0;0;0;0;0;0.333333333
-89.295;4.624;2.516;-16.38810759;-72.19470697;1378.874;0.006192426;-0.008330572;-0.019755;0;0;0;0;0;0;0;0;0;0.666666667
-89.658;4.763;2.307;-16.38810764;-72.19470693;1378.852;0.008125926;-0.017085898;-0.01969;0;0;0;0;0;0;0;0;0;1
-89.997;4.601;2.273;-16.3881077;-72.19470694;1378.841;0.009143126;-0.00404313;-0.018096;0;0;0;0;0;0;0;0;0;1.333333333
-90.282;4.505;2.45;-16.38810749;-72.19470694;1378.824;0.00852892;0.012067865;-0.014907;0;0;0;0;0;0;0;0;0;1.666666667
-90.601;4.442;2.516;-16.38810752;-72.19470695;1378.821;0.012479183;-0.004258576;-0.021352;0;0;0;0;0;0;0;0;0;2
-91.027;4.172;2.346;-16.38810751;-72.19470692;1378.817;0.019347067;-0.009308617;-0.029028;0;0;0;0;0;0;0;0;0;2.333333333
-91.512;4.143;2.241;-16.38810744;-72.19470696;1378.826;0.016218783;0.006497942;-0.025139;0;0;0;0;0;0;0;0;0;2.666666667
-91.926;4.512;2.507;-16.38810744;-72.19470692;1378.831;0.0129557;0.012428577;-0.024388;0;0;0;0;0;0;0;0;0;3
-92.294;4.72;2.636;-16.38810745;-72.1947069;1378.819;0.010558113;-0.007325388;-0.024938;0;0;0;0;0;0;0;0;0;3.333333333
-92.78;4.559;2.275;-16.38810752;-72.19470684;1378.788;0.002394413;-0.015799217;-0.025953;0;0;0;0;0;0;0;0;0;3.666666667
-93.1;4.373;2.177;-16.38810762;-72.19470671;1378.782;-0.007386153;-0.00281689;-0.01294;0;0;0;0;0;0;0;0;0;4
-93.323;4.097;2.455;-16.38810747;-72.19470666;1378.763;-0.002357924;-0.001521927;-0.013916;0;0;0;0;0;0;0;0;0;4.333333333
-93.715;4.004;2.39;-16.38810755;-72.19470669;1378.756;-0.002774002;-0.017644913;-0.028593;0;0;0;0;0;0;0;0;0;4.666666667
-94.059;4.534;2.463;-16.38810757;-72.19470665;1378.757;-0.006095019;-0.001255703;-0.01147;0;0;0;0;0;0;0;0;0;5
-94.158;4.84;2.582;-16.38810755;-72.19470657;1378.755;-0.012515887;-0.011387048;-0.006924;0;0;0;0;0;0;0;0;0;5.333333333
-94.332;4.628;2.2;-16.38810773;-72.19470654;1378.755;-0.017069223;-0.03034633;-0.011312;0;0;0;0;0;0;0;0;0;5.666666667
-94.421;4.417;2.152;-16.38810778;-72.19470651;1378.767;-0.025671821;-0.013439088;0.000135;0;0;0;0;0;0;0;0;0;6
-94.441;4.343;2.559;-16.38810768;-72.19470639;1378.767;-0.02746464;-0.011411676;-0.005234;0;0;0;0;0;0;0;0;0;6.333333333
-94.591;4.366;2.473;-16.38810768;-72.19470627;1378.764;-0.025936944;-0.023699967;-0.011584;0;0;0;0;0;0;0;0;0;6.666666667
-94.767;4.378;2.39;-16.38810778;-72.19470611;1378.745;-0.020307663;-0.019201254;-0.006815;0;0;0;0;0;0;0;0;0;7
-94.843;4.328;2.58;-16.38810766;-72.19470611;1378.738;-0.013176825;-0.001398004;-0.00495;0;0;0;0;0;0;0;0;0;7.333333333
-94.973;4.411;2.446;-16.38810759;-72.19470601;1378.733;-0.014588805;-0.009429349;-0.00957;0;0;0;0;0;0;0;0;0;7.666666667
-95.123;4.593;2.264;-16.38810767;-72.19470599;1378.731;-0.010686984;-0.012384642;-0.006012;0;0;0;0;0;0;0;0;0;8
-95.216;4.507;2.269;-16.38810763;-72.19470596;1378.738;-0.002915035;-0.008143694;-0.007923;0;0;0;0;0;0;0;0;0;8.333333333
-95.37;4.304;2.306;-16.38810759;-72.19470592;1378.747;-0.00297816;-0.007212058;-0.009574;0;0;0;0;0;0;0;0;0;8.666666667
-95.579;4.349;2.519;-16.3881075;-72.1947059;1378.751;0.001372898;-0.003079298;-0.016168;0;0;0;0;0;0;0;0;0;9
-95.844;4.413;2.678;-16.38810749;-72.19470594;1378.758;0.012965321;-0.005451181;-0.016597;0;0;0;0;0;0;0;0;0;9.333333333
-96.139;4.248;2.467;-16.3881074;-72.19470594;1378.748;0.023355437;-0.003813759;-0.01396;0;0;0;0;0;0;0;0;0;9.666666667
-96.336;4.227;2.324;-16.38810742;-72.19470599;1378.745;0.024791826;0.001785514;-0.012897;0;0;0;0;0;0;0;0;0;10
-96.588;4.498;2.333;-16.38810743;-72.19470598;1378.731;0.025473612;-0.001484555;-0.015838;0;0;0;0;0;0;0;0;0;10.33333333
-96.886;4.56;2.292;-16.38810744;-72.19470598;1378.726;0.024631957;-0.004631569;-0.018769;0;0;0;0;0;0;0;0;0;10.66666667
-97.177;4.43;2.398;-16.38810737;-72.19470601;1378.717;0.022813872;0.001325224;-0.014958;0;0;0;0;0;0;0;0;0;11
-97.508;4.344;2.461;-16.38810743;-72.19470601;1378.712;0.020362953;-0.016232559;-0.023815;0;0;0;0;0;0;0;0;0;11.33333333
-97.849;4.4;2.337;-16.38810734;-72.19470601;1378.721;0.020105235;-0.00672177;-0.015236;0;0;0;0;0;0;0;0;0;11.66666667
-98.12;4.497;2.343;-16.38810736;-72.19470612;1378.732;0.023170474;-0.001902574;-0.015353;0;0;0;0;0;0;0;0;0;12
-98.361;4.544;2.419;-16.38810722;-72.19470612;1378.731;0.01719449;0.006181425;-0.012296;0;0;0;0;0;0;0;0;0;12.33333333
-98.539;4.528;2.35;-16.38810725;-72.19470608;1378.732;0.011517136;-0.00364915;-0.007962;0;0;0;0;0;0;0;0;0;12.66666667
-98.66;4.47;2.258;-16.3881073;-72.19470606;1378.724;0.008673197;-0.007763608;-0.007539;0;0;0;0;0;0;0;0;0;13
-98.865;4.455;2.263;-16.38810733;-72.19470607;1378.716;0.010435308;-0.004583364;-0.014005;0;0;0;0;0;0;0;0;0;13.33333333
-99.069;4.464;2.354;-16.3881073;-72.19470609;1378.701;0.014588699;0.001146595;-0.009592;0;0;0;0;0;0;0;0;0;13.66666667
-99.148;4.49;2.492;-16.38810718;-72.19470613;1378.721;0.013453072;0.001935183;-0.001413;0;0;0;0;0;0;0;0;0;14
-99.168;4.563;2.313;-16.38810724;-72.19470603;1378.721;0.00738498;-0.005867989;-0.002369;0;0;0;0;0;0;0;0;0;14.33333333
-99.188;4.626;2.165;-16.38810722;-72.19470603;1378.723;-0.000778575;-0.003325711;0.001128;0;0;0;0;0;0;0;0;0;14.66666667
-99.058;4.76;2.308;-16.38810712;-72.19470602;1378.733;-0.005685663;0.012585289;0.013463;0;0;0;0;0;0;0;0;0;15
-98.866;4.68;2.428;-16.38810705;-72.19470603;1378.737;-0.003122476;0.006871956;0.006922;0;0;0;0;0;0;0;0;0;15.33333333
-98.809;4.378;2.321;-16.38810701;-72.19470598;1378.724;-0.004766883;-0.00154212;0.002648;0;0;0;0;0;0;0;0;0;15.66666667
-98.778;4.306;2.317;-16.38810698;-72.19470594;1378.723;-0.003819323;0.006775368;-0.000194;0;0;0;0;0;0;0;0;0;16
-98.74;4.44;2.381;-16.38810695;-72.19470588;1378.714;-0.001016143;0.012545315;0.003556;0;0;0;0;0;0;0;0;0;16.33333333
-98.667;4.586;2.422;-16.38810692;-72.19470581;1378.708;-0.003483676;0.004591435;0.004812;0;0;0;0;0;0;0;0;0;16.66666667
-98.53;4.545;2.293;-16.38810677;-72.19470584;1378.7;0.003248328;0.004873922;0.010207;0;0;0;0;0;0;0;0;0;17
-98.433;4.408;2.194;-16.38810673;-72.19470586;1378.716;0.004111876;0.011499952;0.002483;0;0;0;0;0;0;0;0;0;17.33333333
-98.371;4.463;2.287;-16.38810656;-72.19470581;1378.733;-0.002711444;0.019925359;0.003357;0;0;0;0;0;0;0;0;0;17.66666667
-98.311;4.587;2.45;-16.3881065;-72.1947058;1378.743;-0.001426292;0.019897875;0.003214;0;0;0;0;0;0;0;0;0;18
-98.227;4.602;2.493;-16.38810645;-72.19470575;1378.758;-0.000374368;0.013870236;0.006317;0;0;0;0;0;0;0;0;0;18.33333333
-98.174;4.349;2.362;-16.3881064;-72.19470572;1378.773;0.003009254;0.004287913;0.002337;0;0;0;0;0;0;0;0;0;18.66666667
-98.153;4.268;2.22;-16.38810645;-72.19470586;1378.763;0.012473422;0.007159373;0.001468;0;0;0;0;0;0;0;0;0;19
-98.114;4.45;2.301;-16.38810643;-72.19470587;1378.769;0.012827682;0.009467303;0.000244;0;0;0;0;0;0;0;0;0;19.33333333
-98.139;4.557;2.467;-16.38810629;-72.19470582;1378.763;0.013692886;0.012129053;0.000606;0;0;0;0;0;0;0;0;0;19.66666667
-98.158;4.559;2.388;-16.38810631;-72.19470582;1378.758;0.004991838;-0.002455687;-0.002788;0;0;0;0;0;0;0;0;0;20
-98.214;4.649;2.231;-16.38810627;-72.1947058;1378.777;0.001152177;0.004050293;-0.001014;0;0;0;0;0;0;0;0;0;20.33333333
-98.263;4.607;2.314;-16.38810617;-72.19470589;1378.843;0.005100809;0.010090694;-0.00385;0;0;0;0;0;0;0;0;0;20.66666667
-98.365;4.435;2.302;-16.38810605;-72.1947059;1378.886;0.004340706;0.003635568;-0.008368;0;0;0;0;0;0;0;0;0;21
-98.515;4.408;2.229;-16.38810606;-72.19470597;1378.895;0.006747621;0.004668998;-0.007609;0;0;0;0;0;0;0;0;0;21.33333333
-98.61;4.493;2.373;-16.3881061;-72.1947058;1378.89;0.002252858;0.006082961;-0.00726;0;0;0;0;0;0;0;0;0;21.66666667
-98.714;4.492;2.606;-16.3881061;-72.19470574;1378.882;0.003984867;0.008138926;-0.004882;0;0;0;0;0;0;0;0;0;22
-98.874;4.435;2.591;-16.38810617;-72.19470562;1378.875;-0.003418305;-0.005820107;-0.013928;0;0;0;0;0;0;0;0;0;22.33333333
-99.096;4.565;2.34;-16.38810618;-72.19470561;1378.889;-0.005988614;-0.000201624;-0.009937;0;0;0;0;0;0;0;0;0;22.66666667
-99.188;4.637;2.148;-16.38810612;-72.19470559;1378.916;-0.004420598;0.008376266;-0.001524;0;0;0;0;0;0;0;0;0;23
-99.27;4.533;2.128;-16.38810612;-72.19470548;1378.909;-0.006221192;0.001558707;-0.008163;0;0;0;0;0;0;0;0;0;23.33333333
-99.456;4.336;2.231;-16.38810621;-72.19470534;1378.883;-0.010316899;-0.001637763;-0.008759;0;0;0;0;0;0;0;0;0;23.66666667
-99.535;4.531;2.426;-16.38810614;-72.19470521;1378.885;-0.023384385;-0.001068525;-0.001968;0;0;0;0;0;0;0;0;0;24
-99.599;4.758;2.451;-16.38810599;-72.19470522;1378.885;-0.016029002;-0.000317009;-0.006285;0;0;0;0;0;0;0;0;0;24.33333333
-99.731;4.454;2.284;-16.38810598;-72.19470517;1378.903;-0.010728747;-0.005077929;-0.006013;0;0;0;0;0;0;0;0;0;24.66666667
-99.841;4.307;2.127;-16.38810597;-72.19470511;1378.923;-0.020159721;-0.003392595;-0.007622;0;0;0;0;0;0;0;0;0;25
-99.935;4.559;2.14;-16.38810581;-72.19470496;1378.932;-0.02376254;0.006991631;-0.002506;0;0;0;0;0;0;0;0;0;25.33333333
-99.951;4.695;2.314;-16.38810585;-72.19470482;1378.947;-0.02513409;0.006021843;0.002212;0;0;0;0;0;0;0;0;0;25.66666667
-99.905;4.528;2.507;-16.38810581;-72.19470476;1378.958;-0.02069431;0.000257163;0.000587;0;0;0;0;0;0;0;0;0;26
-99.985;4.375;2.516;-16.38810577;-72.1947047;1378.988;-0.021440981;0.008545107;-0.003835;0;0;0;0;0;0;0;0;0;26.33333333
-100.004;4.502;2.492;-16.38810571;-72.19470464;1379.008;-0.02683875;0.010664708;-0.000864;0;0;0;0;0;0;0;0;0;26.66666667
-100.032;4.651;2.265;-16.38810574;-72.19470453;1379.037;-0.023350828;0.002430788;-0.003419;0;0;0;0;0;0;0;0;0;27
-100.039;4.579;2.039;-16.38810573;-72.19470448;1379.055;-0.026051054;0.012241796;0.001916;0;0;0;0;0;0;0;0;0;27.33333333
-100.016;4.579;2.189;-16.38810575;-72.19470437;1379.069;-0.035171926;0.008870019;-0.000014;0;0;0;0;0;0;0;0;0;27.66666667
-99.997;4.589;2.454;-16.38810574;-72.19470418;1379.071;-0.051286679;-0.00244781;0.001453;0;0;0;0;0;0;0;0;0;28
-99.989;4.493;2.481;-16.38810579;-72.19470395;1379.057;-0.062765269;-0.018654111;-0.00008;0;0;0;0;0;0;0;0;0;28.33333333
-100.001;4.253;2.574;-16.38810586;-72.19470375;1379.053;-0.072640126;-0.023980425;0.002271;0;0;0;0;0;0;0;0;0;28.66666667
-99.973;4.139;2.613;-16.38810577;-72.19470349;1379.06;-0.090737772;-0.02003992;0.001843;0;0;0;0;0;0;0;0;0;29
-99.832;4.358;2.651;-16.3881058;-72.19470312;1379.058;-0.118028666;-0.019593746;0.010528;0;0;0;0;0;0;0;0;0;29.33333333
-99.692;4.445;2.691;-16.3881058;-72.19470289;1379.083;-0.12218993;-0.026808781;0.00566;0;0;0;0;0;0;0;0;0;29.66666667
-99.532;4.37;2.512;-16.38810576;-72.19470249;1379.11;-0.141981671;-0.035751468;0.013851;0;0;0;0;0;0;0;0;0;30
-99.286;4.422;2.351;-16.38810589;-72.19470208;1379.124;-0.147646557;-0.046532253;0.010225;0;0;0;0;0;0;0;0;0;30.33333333
-99.241;4.313;2.467;-16.38810594;-72.1947016;1379.144;-0.1510769;-0.06079285;-0.001814;0;0;0;0;0;0;0;0;0;30.66666667
-99.284;4.215;2.589;-16.38810603;-72.19470112;1379.125;-0.168369986;-0.066023853;-0.002274;0;0;0;0;0;0;0;0;0;31
-99.237;4.375;2.755;-16.38810617;-72.19470063;1379.123;-0.18372396;-0.075837955;0.005826;0;0;0;0;0;0;0;0;0;31.33333333
-99.174;4.382;2.727;-16.38810642;-72.19470008;1379.098;-0.186511015;-0.098074472;-0.002465;0;0;0;0;0;0;0;0;0;31.66666667
-99.321;4.187;2.405;-16.3881066;-72.19469954;1379.093;-0.181069953;-0.107509438;-0.010696;0;0;0;0;0;0;0;0;0;32
-99.452;4.194;2.277;-16.38810686;-72.19469899;1379.088;-0.182003757;-0.107720434;-0.009209;0;0;0;0;0;0;0;0;0;32.33333333
-99.764;4.426;2.352;-16.38810705;-72.19469847;1379.091;-0.167495681;-0.108865835;-0.027574;0;0;0;0;0;0;0;0;0;32.66666667
-100.381;4.421;2.414;-16.38810731;-72.194698;1379.124;-0.142964618;-0.111580009;-0.040147;0;0;0;0;0;0;0;0;0;33
-101.03;4.266;2.622;-16.38810751;-72.19469761;1379.141;-0.126193369;-0.100765444;-0.034922;0;0;0;0;0;0;0;0;0;33.33333333
-101.704;4.273;2.8;-16.38810765;-72.19469719;1379.168;-0.118953002;-0.095401405;-0.043588;0;0;0;0;0;0;0;0;0;33.66666667
-102.552;4.326;2.718;-16.38810781;-72.1946968;1379.183;-0.110856414;-0.095494892;-0.046567;0;0;0;0;0;0;0;0;0;34
-103.117;4.339;2.715;-16.38810794;-72.19469642;1379.19;-0.105333612;-0.078659321;-0.022985;0;0;0;0;0;0;0;0;0;34.33333333
-103.552;4.374;2.558;-16.3881081;-72.19469603;1379.185;-0.083196989;-0.086678738;-0.030057;0;0;0;0;0;0;0;0;0;34.66666667
-104.015;4.281;2.37;-16.38810843;-72.19469563;1379.172;-0.048660015;-0.094388347;-0.020754;0;0;0;0;0;0;0;0;0;35
-104.368;4.093;2.673;-16.38810862;-72.19469553;1379.175;-0.010115286;-0.084500877;-0.014341;0;0;0;0;0;0;0;0;0;35.33333333
-104.587;4.348;2.85;-16.38810883;-72.19469547;1379.177;0.013411372;-0.103891199;-0.019504;0;0;0;0;0;0;0;0;0;35.66666667
-105.058;4.541;2.671;-16.38810918;-72.19469554;1379.192;0.04068784;-0.1162938;-0.028851;0;0;0;0;0;0;0;0;0;36
-105.393;4.229;2.695;-16.38810944;-72.19469565;1379.2;0.050684932;-0.09789613;-0.017086;0;0;0;0;0;0;0;0;0;36.33333333
-105.677;3.954;2.706;-16.38810972;-72.19469565;1379.195;0.029371906;-0.096028277;-0.009613;0;0;0;0;0;0;0;0;0;36.66666667
-105.709;4.257;2.971;-16.3881099;-72.19469567;1379.191;0.011772356;-0.080690215;0.001632;0;0;0;0;0;0;0;0;0;37
-105.624;4.57;2.998;-16.3881102;-72.1946956;1379.204;0.016182164;-0.096087667;0.00715;0;0;0;0;0;0;0;0;0;37.33333333
-105.35;4.394;2.4;-16.38811062;-72.19469561;1379.193;0.019185512;-0.086439976;0.02723;0;0;0;0;0;0;0;0;0;37.66666667
-104.805;4.212;2.381;-16.38811075;-72.19469558;1379.191;0.00460354;-0.052511464;0.033703;0;0;0;0;0;0;0;0;0;38
-104.222;4.42;2.508;-16.38811065;-72.19469564;1379.204;-0.001524727;-0.038495184;0.035408;0;0;0;0;0;0;0;0;0;38.33333333
-103.589;4.587;2.545;-16.3881109;-72.19469556;1379.211;-0.003640077;-0.0423847;0.035565;0;0;0;0;0;0;0;0;0;38.66666667
-102.966;4.462;3.022;-16.38811093;-72.19469555;1379.208;-0.009299973;-0.03010098;0.036014;0;0;0;0;0;0;0;0;0;39
-102.435;4.423;2.927;-16.38811092;-72.19469547;1379.213;-0.016216907;-0.053418479;0.019833;0;0;0;0;0;0;0;0;0;39.33333333
-102.07;4.352;2.498;-16.3881111;-72.19469554;1379.235;-0.014936019;-0.043271066;0.02451;0;0;0;0;0;0;0;0;0;39.66666667
-101.683;4.248;2.761;-16.38811114;-72.19469537;1379.239;-0.01605327;-0.032574488;0.017133;0;0;0;0;0;0;0;0;0;40
-101.453;4.183;2.753;-16.38811126;-72.19469531;1379.249;-0.011778196;-0.048142979;0.010164;0;0;0;0;0;0;0;0;0;40.33333333
-101.38;4.202;2.844;-16.38811135;-72.19469524;1379.256;-0.014448363;-0.043034202;-0.002611;0;0;0;0;0;0;0;0;0;40.66666667
-101.455;4.328;2.923;-16.38811142;-72.19469521;1379.259;-0.015922111;-0.043742539;-0.004715;0;0;0;0;0;0;0;0;0;41
-101.48;4.49;2.715;-16.38811149;-72.19469518;1379.272;-0.025002215;-0.048552523;-0.00084;0;0;0;0;0;0;0;0;0;41.33333333
-101.475;4.675;2.472;-16.38811156;-72.19469515;1379.288;-0.026241605;-0.045907263;0.001685;0;0;0;0;0;0;0;0;0;41.66666667
-101.453;4.598;2.375;-16.38811167;-72.19469503;1379.292;-0.029193841;-0.047346113;-0.004246;0;0;0;0;0;0;0;0;0;42
-101.569;4.517;2.183;-16.38811182;-72.19469491;1379.318;-0.03395271;-0.046603204;-0.003528;0;0;0;0;0;0;0;0;0;42.33333333
-101.609;4.454;2.486;-16.38811189;-72.19469483;1379.334;-0.030204301;-0.038345517;-0.005163;0;0;0;0;0;0;0;0;0;42.66666667
-101.802;4.42;2.688;-16.38811189;-72.19469466;1379.355;-0.033527241;-0.051443136;-0.016829;0;0;0;0;0;0;0;0;0;43
-102.137;4.6;2.396;-16.38811216;-72.19469457;1379.36;-0.031642036;-0.075191386;-0.020736;0;0;0;0;0;0;0;0;0;43.33333333
-102.419;4.604;2.369;-16.38811231;-72.19469446;1379.354;-0.034177816;-0.071977082;-0.014626;0;0;0;0;0;0;0;0;0;43.66666667
-102.755;4.381;2.497;-16.38811247;-72.19469429;1379.358;-0.037390561;-0.076542387;-0.022753;0;0;0;0;0;0;0;0;0;44
-103.156;4.264;2.637;-16.38811261;-72.19469414;1379.365;-0.047169219;-0.083897017;-0.022453;0;0;0;0;0;0;0;0;0;44.33333333
-103.512;4.349;2.772;-16.38811281;-72.19469397;1379.371;-0.051438785;-0.087935956;-0.0189;0;0;0;0;0;0;0;0;0;44.66666667
-103.882;4.434;2.703;-16.38811291;-72.19469383;1379.4;-0.054039103;-0.087166305;-0.025256;0;0;0;0;0;0;0;0;0;45
-104.223;4.411;2.377;-16.38811312;-72.19469358;1379.429;-0.073741233;-0.097502523;-0.01238;0;0;0;0;0;0;0;0;0;45.33333333
-104.402;4.622;2.333;-16.38811319;-72.19469328;1379.47;-0.092569073;-0.081394304;-0.009222;0;0;0;0;0;0;0;0;0;45.66666667
-104.543;4.719;2.457;-16.38811328;-72.19469296;1379.475;-0.091281893;-0.087277643;-0.009485;0;0;0;0;0;0;0;0;0;46
-104.811;4.512;2.203;-16.38811358;-72.1946927;1379.485;-0.086175276;-0.103354627;-0.019973;0;0;0;0;0;0;0;0;0;46.33333333
-105.069;4.357;2.262;-16.38811372;-72.19469246;1379.49;-0.09046861;-0.081702385;-0.009269;0;0;0;0;0;0;0;0;0;46.66666667
-105.292;4.504;2.408;-16.38811384;-72.19469215;1379.482;-0.087516684;-0.087611142;-0.017936;0;0;0;0;0;0;0;0;0;47
-105.565;4.64;2.37;-16.38811408;-72.19469188;1379.51;-0.075678431;-0.090251816;-0.015522;0;0;0;0;0;0;0;0;0;47.33333333
-105.922;4.627;2.541;-16.38811428;-72.19469157;1379.516;-0.070655051;-0.086148897;-0.022638;0;0;0;0;0;0;0;0;0;47.66666667
-106.3;4.711;2.673;-16.38811442;-72.19469133;1379.518;-0.067252339;-0.080164669;-0.024931;0;0;0;0;0;0;0;0;0;48
-106.831;4.707;2.627;-16.38811462;-72.1946911;1379.538;-0.053780033;-0.089198681;-0.035793;0;0;0;0;0;0;0;0;0;48.33333333
-107.556;4.426;2.583;-16.38811479;-72.19469093;1379.567;-0.041293431;-0.084686845;-0.045417;0;0;0;0;0;0;0;0;0;48.66666667
-108.277;4.394;2.606;-16.38811491;-72.19469071;1379.579;-0.044706507;-0.069538451;-0.039244;0;0;0;0;0;0;0;0;0;49
-109.008;4.633;2.61;-16.38811507;-72.1946904;1379.588;-0.043395529;-0.080691242;-0.044098;0;0;0;0;0;0;0;0;0;49.33333333
-109.85;4.58;2.3;-16.38811524;-72.1946902;1379.597;-0.042853313;-0.094043081;-0.053439;0;0;0;0;0;0;0;0;0;49.66666667
-110.695;4.561;1.969;-16.38811542;-72.19468998;1379.597;-0.059567461;-0.07167425;-0.033374;0;0;0;0;0;0;0;0;0;50
-111.019;4.67;2.573;-16.3881154;-72.19468984;1379.586;-0.077600503;-0.03169864;-0.011302;0;0;0;0;0;0;0;0;0;50.33333333
-111.275;4.433;3.109;-16.38811544;-72.1946896;1379.608;-0.079714711;-0.060379237;-0.018463;0;0;0;0;0;0;0;0;0;50.66666667
-111.567;3.943;2.833;-16.38811552;-72.19468939;1379.63;-0.089624811;-0.057097689;-0.006874;0;0;0;0;0;0;0;0;0;51
-111.567;4.112;2.512;-16.38811549;-72.194689;1379.629;-0.107838168;-0.034109527;0.002086;0;0;0;0;0;0;0;0;0;51.33333333
-111.447;4.623;2.552;-16.38811531;-72.19468882;1379.656;-0.100972069;-0.009207724;0.010802;0;0;0;0;0;0;0;0;0;51.66666667
-111.203;4.524;2.583;-16.38811524;-72.1946886;1379.679;-0.088248501;-0.012631939;0.016041;0;0;0;0;0;0;0;0;0;52
-110.993;4.201;2.418;-16.38811517;-72.19468843;1379.677;-0.092268011;-0.020464946;0.009395;0;0;0;0;0;0;0;0;0;52.33333333
-110.871;4.653;2.23;-16.38811507;-72.19468817;1379.688;-0.103586414;-0.008136201;0.00551;0;0;0;0;0;0;0;0;0;52.66666667
-110.75;4.981;2.357;-16.38811504;-72.19468784;1379.681;-0.097498961;-0.008268695;0.008167;0;0;0;0;0;0;0;0;0;53
-110.628;4.395;2.477;-16.38811498;-72.19468759;1379.678;-0.091240201;-0.022558195;0.003622;0;0;0;0;0;0;0;0;0;53.33333333
-110.694;4.023;2.417;-16.38811492;-72.19468739;1379.679;-0.091110791;-0.030742134;-0.009415;0;0;0;0;0;0;0;0;0;53.66666667
-110.823;4.375;2.523;-16.38811488;-72.19468716;1379.711;-0.084245015;-0.02093725;-0.005078;0;0;0;0;0;0;0;0;0;54
-110.9;4.626;2.619;-16.38811484;-72.19468682;1379.763;-0.07168492;-0.037414017;-0.005576;0;0;0;0;0;0;0;0;0;54.33333333
-111.03;4.118;2.597;-16.38811482;-72.19468672;1379.794;-0.045537555;-0.019901762;-0.005792;0;0;0;0;0;0;0;0;0;54.66666667
-111.168;4.04;2.824;-16.38811479;-72.19468662;1379.817;-0.045404773;-0.004387206;-0.005512;0;0;0;0;0;0;0;0;0;55
-111.129;4.578;3.044;-16.38811474;-72.19468647;1379.847;-0.036149249;0.001815181;0.005313;0;0;0;0;0;0;0;0;0;55.33333333
-111.055;4.659;2.748;-16.3881147;-72.19468647;1379.852;-0.014745215;-0.001749432;0.002341;0;0;0;0;0;0;0;0;0;55.66666667
-111.026;4.21;2.418;-16.38811471;-72.19468648;1379.845;-0.00399901;0.011398074;0.002556;0;0;0;0;0;0;0;0;0;56
-110.972;4.221;2.452;-16.38811468;-72.19468646;1379.823;-0.011979235;0.016413277;0.005697;0;0;0;0;0;0;0;0;0;56.33333333
-110.931;4.783;2.311;-16.38811471;-72.19468641;1379.809;-0.010648565;-0.006237409;-0.003948;0;0;0;0;0;0;0;0;0;56.66666667
-111.04;4.815;2.132;-16.38811491;-72.19468629;1379.756;-0.002028138;-0.021525154;-0.005929;0;0;0;0;0;0;0;0;0;57
-111.156;4.376;2.196;-16.38811491;-72.19468628;1379.752;-0.006906314;-0.012495044;-0.005744;0;0;0;0;0;0;0;0;0;57.33333333
-111.298;4.36;2.506;-16.38811486;-72.19468636;1379.758;-0.010766762;-0.004787127;-0.0084;0;0;0;0;0;0;0;0;0;57.66666667
-111.444;4.461;2.9;-16.38811477;-72.19468641;1379.774;0.005910411;-0.013796538;-0.010997;0;0;0;0;0;0;0;0;0;58
-111.73;4.304;2.654;-16.38811476;-72.19468653;1379.793;0.020806672;-0.026942339;-0.017506;0;0;0;0;0;0;0;0;0;58.33333333
-111.993;4.295;2.346;-16.38811497;-72.19468671;1379.798;0.035325525;-0.012948915;-0.013491;0;0;0;0;0;0;0;0;0;58.66666667
-112.274;4.486;2.562;-16.38811484;-72.19468682;1379.805;0.039183309;0.001652077;-0.01925;0;0;0;0;0;0;0;0;0;59
-112.542;4.583;2.656;-16.38811481;-72.19468697;1379.816;0.047115849;0.000839171;-0.014997;0;0;0;0;0;0;0;0;0;59.33333333
-112.848;4.464;2.411;-16.38811484;-72.19468713;1379.829;0.052090756;-0.016797198;-0.021105;0;0;0;0;0;0;0;0;0;59.66666667
-113.275;4.406;2.264;-16.38811492;-72.19468733;1379.842;0.054766642;-0.014374353;-0.028466;0;0;0;0;0;0;0;0;0;60
-113.784;4.485;2.254;-16.38811497;-72.19468751;1379.843;0.060322203;-0.015290185;-0.026269;0;0;0;0;0;0;0;0;0;60.33333333
-114.219;4.487;2.341;-16.38811503;-72.19468767;1379.858;0.059840898;-0.021437756;-0.027844;0;0;0;0;0;0;0;0;0;60.66666667
-114.789;4.553;2.393;-16.38811528;-72.19468783;1379.866;0.059985622;-0.040582282;-0.038571;0;0;0;0;0;0;0;0;0;61
-115.527;4.595;2.293;-16.38811536;-72.19468788;1379.88;0.058269994;-0.047188599;-0.047361;0;0;0;0;0;0;0;0;0;61.33333333
-116.343;4.485;2.297;-16.38811558;-72.19468804;1379.888;0.059692288;-0.043030351;-0.048968;0;0;0;0;0;0;0;0;0;61.66666667
-117.225;4.453;2.393;-16.38811562;-72.19468817;1379.898;0.053841497;-0.049112738;-0.054331;0;0;0;0;0;0;0;0;0;62
-118.121;4.602;2.136;-16.38811587;-72.19468821;1379.888;0.034806655;-0.056085929;-0.046728;0;0;0;0;0;0;0;0;0;62.33333333
-118.81;4.733;2.151;-16.38811602;-72.1946882;1379.891;0.018057095;-0.0438846;-0.035702;0;0;0;0;0;0;0;0;0;62.66666667
-119.324;4.606;2.317;-16.3881161;-72.19468822;1379.892;-0.013669542;-0.045296259;-0.022064;0;0;0;0;0;0;0;0;0;63
-119.59;4.566;2.39;-16.38811616;-72.19468813;1379.902;-0.039490899;-0.051632879;-0.009907;0;0;0;0;0;0;0;0;0;63.33333333
-119.757;4.432;2.588;-16.38811632;-72.1946879;1379.905;-0.044198818;-0.056314673;-0.005456;0;0;0;0;0;0;0;0;0;63.66666667
-119.73;4.192;2.737;-16.38811635;-72.19468772;1379.921;-0.044284454;-0.063415947;0.005549;0;0;0;0;0;0;0;0;0;64
-119.673;4.338;2.488;-16.38811648;-72.19468753;1379.927;-0.024964722;-0.082973854;0.000344;0;0;0;0;0;0;0;0;0;64.33333333
-119.662;4.616;2.209;-16.38811667;-72.19468737;1379.924;0.004923694;-0.085773576;0.000423;0;0;0;0;0;0;0;0;0;64.66666667
-119.625;4.762;2.18;-16.38811681;-72.1946874;1379.906;0.013766519;-0.07340149;0.003609;0;0;0;0;0;0;0;0;0;65
-119.531;4.54;2.403;-16.38811707;-72.19468738;1379.897;0.016146875;-0.076152954;0.005458;0;0;0;0;0;0;0;0;0;65.33333333
-119.471;4.447;2.333;-16.38811731;-72.19468735;1379.868;0.008060515;-0.092315307;0.000925;0;0;0;0;0;0;0;0;0;65.66666667
-119.444;4.74;2.247;-16.38811754;-72.19468715;1379.858;-0.003386125;-0.083311658;0.004088;0;0;0;0;0;0;0;0;0;66
-119.331;4.917;2.64;-16.38811761;-72.19468714;1379.868;0.001410016;-0.06639105;0.005555;0;0;0;0;0;0;0;0;0;66.33333333
-119.261;4.716;2.856;-16.38811775;-72.19468708;1379.876;0.003347988;-0.087421783;0.004266;0;0;0;0;0;0;0;0;0;66.66666667
-119.203;4.619;2.534;-16.38811803;-72.19468699;1379.892;0.006520467;-0.098060432;0.002813;0;0;0;0;0;0;0;0;0;67
-119.199;4.777;2.489;-16.38811827;-72.19468697;1379.917;0.021099136;-0.082092908;-0.003004;0;0;0;0;0;0;0;0;0;67.33333333
-119.266;4.817;2.764;-16.38811825;-72.19468696;1379.911;0.02417138;-0.069821142;-0.006094;0;0;0;0;0;0;0;0;0;67.66666667
-119.444;4.742;2.722;-16.38811844;-72.19468701;1379.916;0.022680179;-0.070958558;-0.013026;0;0;0;0;0;0;0;0;0;68
-119.693;4.696;2.522;-16.38811859;-72.19468691;1379.893;0.010507568;-0.06889637;-0.01609;0;0;0;0;0;0;0;0;0;68.33333333
-120.041;4.681;2.319;-16.38811872;-72.19468682;1379.889;0.001679676;-0.069130908;-0.022089;0;0;0;0;0;0;0;0;0;68.66666667
-120.397;4.732;2.228;-16.38811893;-72.19468668;1379.866;-0.009315834;-0.062321816;-0.017882;0;0;0;0;0;0;0;0;0;69
-120.626;4.71;2.582;-16.38811894;-72.19468659;1379.859;-0.022949795;-0.048242329;-0.010309;0;0;0;0;0;0;0;0;0;69.33333333
-120.824;4.609;2.88;-16.38811893;-72.19468651;1379.869;-0.043064781;-0.0531198;-0.011026;0;0;0;0;0;0;0;0;0;69.66666667
-120.951;4.702;2.649;-16.38811901;-72.19468628;1379.875;-0.065622993;-0.063512614;-0.005144;0;0;0;0;0;0;0;0;0;70
-121.009;4.784;2.384;-16.38811916;-72.19468596;1379.85;-0.074108947;-0.063294674;-0.000457;0;0;0;0;0;0;0;0;0;70.33333333
-120.912;4.709;2.389;-16.388119;-72.19468572;1379.854;-0.0790342;-0.05752539;0.012333;0;0;0;0;0;0;0;0;0;70.66666667
-120.642;4.738;2.195;-16.38811907;-72.19468548;1379.828;-0.068465823;-0.081574761;0.018105;0;0;0;0;0;0;0;0;0;71
-120.282;4.87;2.311;-16.38811916;-72.19468523;1379.817;-0.058676977;-0.077222684;0.023212;0;0;0;0;0;0;0;0;0;71.33333333
-119.912;4.692;2.576;-16.38811929;-72.19468499;1379.794;-0.043050361;-0.093582831;0.020913;0;0;0;0;0;0;0;0;0;71.66666667
-119.577;4.524;2.695;-16.38811948;-72.19468485;1379.787;-0.026146008;-0.09807839;0.016748;0;0;0;0;0;0;0;0;0;72
-119.43;4.996;2.85;-16.38811963;-72.19468473;1379.768;-0.003221174;-0.108513653;0.00014;0;0;0;0;0;0;0;0;0;72.33333333
-119.409;5.162;2.914;-16.38811997;-72.19468459;1379.784;0.024762854;-0.110545401;0.00154;0;0;0;0;0;0;0;0;0;72.66666667
-119.412;4.831;2.914;-16.38812015;-72.19468462;1379.8;0.026966348;-0.105914769;-0.002816;0;0;0;0;0;0;0;0;0;73
-119.526;4.817;2.674;-16.38812044;-72.1946846;1379.799;0.028589446;-0.117470977;-0.007375;0;0;0;0;0;0;0;0;0;73.33333333
-119.64;4.874;2.48;-16.38812066;-72.19468458;1379.794;0.037136434;-0.091780432;-0.00769;0;0;0;0;0;0;0;0;0;73.66666667
-119.745;4.65;2.842;-16.38812085;-72.19468457;1379.804;0.023158907;-0.075901867;-0.003878;0;0;0;0;0;0;0;0;0;74
-119.899;4.69;2.785;-16.38812102;-72.19468452;1379.793;0.008698689;-0.099412819;-0.017043;0;0;0;0;0;0;0;0;0;74.33333333
-120.193;4.886;2.241;-16.38812133;-72.19468437;1379.784;-0.001602532;-0.100985779;-0.012973;0;0;0;0;0;0;0;0;0;74.66666667
-120.328;4.842;2.139;-16.3881215;-72.1946843;1379.783;-0.003508128;-0.083579052;-0.007907;0;0;0;0;0;0;0;0;0;75
-120.497;4.462;2.585;-16.38812165;-72.19468416;1379.787;-0.006707823;-0.076983021;-0.009548;0;0;0;0;0;0;0;0;0;75.33333333
-120.665;4.403;2.633;-16.38812175;-72.19468415;1379.792;-0.014309061;-0.08688034;-0.008691;0;0;0;0;0;0;0;0;0;75.66666667
-120.761;4.767;2.448;-16.38812195;-72.19468405;1379.818;-0.015512676;-0.083047212;-0.005278;0;0;0;0;0;0;0;0;0;76
-120.915;4.982;2.513;-16.38812195;-72.194684;1379.829;-0.005716555;-0.062127907;-0.014656;0;0;0;0;0;0;0;0;0;76.33333333
-121.11;4.707;2.506;-16.38812215;-72.19468389;1379.838;-0.014500807;-0.068761449;-0.005509;0;0;0;0;0;0;0;0;0;76.66666667
-121.15;4.721;2.549;-16.38812218;-72.19468365;1379.822;-0.039451812;-0.065310043;-0.00206;0;0;0;0;0;0;0;0;0;77
-121.182;4.948;2.607;-16.38812221;-72.19468347;1379.821;-0.044308693;-0.07067418;-0.003251;0;0;0;0;0;0;0;0;0;77.33333333
-121.273;4.847;2.47;-16.3881224;-72.19468323;1379.794;-0.038258726;-0.074394425;-0.005627;0;0;0;0;0;0;0;0;0;77.66666667
-121.479;4.474;2.564;-16.38812248;-72.19468309;1379.799;-0.034817347;-0.068256754;-0.017438;0;0;0;0;0;0;0;0;0;78
-121.886;4.394;2.452;-16.38812256;-72.19468294;1379.797;-0.035143757;-0.065925423;-0.031258;0;0;0;0;0;0;0;0;0;78.33333333
-122.588;4.437;2.29;-16.38812268;-72.1946828;1379.799;-0.020038547;-0.060742815;-0.04396;0;0;0;0;0;0;0;0;0;78.66666667
-123.282;4.577;2.52;-16.38812267;-72.19468272;1379.818;-0.024015087;-0.04025711;-0.03751;0;0;0;0;0;0;0;0;0;79
-123.927;4.876;2.554;-16.38812277;-72.19468258;1379.826;-0.029089082;-0.06152222;-0.040998;0;0;0;0;0;0;0;0;0;79.33333333
-124.674;4.839;2.3;-16.3881229;-72.1946825;1379.813;-0.024362025;-0.062993274;-0.045178;0;0;0;0;0;0;0;0;0;79.66666667
-125.385;4.617;2.238;-16.38812297;-72.19468237;1379.816;-0.034264843;-0.059653262;-0.035535;0;0;0;0;0;0;0;0;0;80
-125.91;4.704;2.301;-16.38812306;-72.19468214;1379.799;-0.043886188;-0.059774482;-0.029752;0;0;0;0;0;0;0;0;0;80.33333333
-126.52;4.676;2.531;-16.38812306;-72.19468191;1379.79;-0.034226804;-0.068437785;-0.035824;0;0;0;0;0;0;0;0;0;80.66666667
-127.038;4.486;2.705;-16.38812315;-72.19468179;1379.786;-0.026550363;-0.065513369;-0.021942;0;0;0;0;0;0;0;0;0;81
-127.393;4.764;2.69;-16.38812335;-72.1946816;1379.792;-0.023034237;-0.079077225;-0.022538;0;0;0;0;0;0;0;0;0;81.33333333
-127.711;5.124;2.47;-16.38812348;-72.19468139;1379.774;-0.019715789;-0.097179363;-0.010658;0;0;0;0;0;0;0;0;0;81.66666667
-127.705;5.007;2.24;-16.38812371;-72.19468124;1379.778;-0.008212632;-0.088743852;0.006606;0;0;0;0;0;0;0;0;0;82
-127.546;4.66;2.402;-16.38812391;-72.19468123;1379.787;-0.001586659;-0.083232949;0.014208;0;0;0;0;0;0;0;0;0;82.33333333
-127.184;5.12;2.936;-16.38812392;-72.19468101;1379.804;-0.012243598;-0.094308642;0.024596;0;0;0;0;0;0;0;0;0;82.66666667
-126.68;5.374;2.729;-16.38812419;-72.19468086;1379.812;0.011444602;-0.131817214;0.030083;0;0;0;0;0;0;0;0;0;83
-126.167;4.905;2.432;-16.38812447;-72.19468074;1379.797;0.02201806;-0.123361944;0.03403;0;0;0;0;0;0;0;0;0;83.33333333
-125.53;4.857;2.797;-16.38812482;-72.19468068;1379.767;0.024831677;-0.112810237;0.033873;0;0;0;0;0;0;0;0;0;83.66666667
-124.965;5.148;2.985;-16.38812518;-72.19468057;1379.769;0.03710653;-0.12528997;0.032092;0;0;0;0;0;0;0;0;0;84
-124.556;5.21;3.104;-16.38812548;-72.19468045;1379.75;0.029633048;-0.12288494;0.013729;0;0;0;0;0;0;0;0;0;84.33333333
-124.345;5.001;2.901;-16.38812579;-72.19468031;1379.747;0.021185538;-0.124731357;0.01387;0;0;0;0;0;0;0;0;0;84.66666667
-124.261;5.042;2.831;-16.38812607;-72.19468024;1379.739;0.0142002;-0.09690852;-0.006411;0;0;0;0;0;0;0;0;0;85
-124.437;5.247;3.15;-16.38812631;-72.19468018;1379.748;0.004109195;-0.091171148;-0.012467;0;0;0;0;0;0;0;0;0;85.33333333
-124.633;5.113;2.973;-16.38812646;-72.19467996;1379.747;-0.013099493;-0.102967838;-0.016521;0;0;0;0;0;0;0;0;0;85.66666667
-125.116;4.982;2.753;-16.38812666;-72.19467972;1379.748;-0.038126327;-0.071951919;-0.033624;0;0;0;0;0;0;0;0;0;86
-125.627;5.231;3.286;-16.38812658;-72.19467958;1379.735;-0.069000804;-0.046996926;-0.027523;0;0;0;0;0;0;0;0;0;86.33333333
-126.273;5.017;2.87;-16.38812654;-72.19467929;1379.722;-0.075017402;-0.086286627;-0.048739;0;0;0;0;0;0;0;0;0;86.66666667
-127.302;4.256;1.827;-16.38812682;-72.19467897;1379.695;-0.08053646;-0.075596467;-0.062023;0;0;0;0;0;0;0;0;0;87
-128.36;4.332;2.13;-16.38812682;-72.19467873;1379.7;-0.0907102;-0.029823797;-0.060416;0;0;0;0;0;0;0;0;0;87.33333333
-129.47;4.781;2.649;-16.38812658;-72.19467853;1379.736;-0.09374982;-0.042586044;-0.070095;0;0;0;0;0;0;0;0;0;87.66666667
-130.652;4.566;2.182;-16.38812653;-72.19467827;1379.758;-0.096858958;-0.066190353;-0.062601;0;0;0;0;0;0;0;0;0;88
-131.692;4.179;1.906;-16.38812644;-72.19467801;1379.792;-0.099690396;-0.045273167;-0.060068;0;0;0;0;0;0;0;0;0;88.33333333
-132.757;4.344;2.029;-16.38812635;-72.19467773;1379.781;-0.104637728;-0.029470572;-0.06198;0;0;0;0;0;0;0;0;0;88.66666667
-133.68;4.818;2.373;-16.38812618;-72.19467734;1379.744;-0.111849696;-0.042882037;-0.046653;0;0;0;0;0;0;0;0;0;89
-134.576;4.609;2.23;-16.38812615;-72.19467706;1379.728;-0.093524344;-0.079828693;-0.061948;0;0;0;0;0;0;0;0;0;89.33333333
-135.688;4.093;1.798;-16.38812616;-72.19467673;1379.703;-0.087864776;-0.059221197;-0.055646;0;0;0;0;0;0;0;0;0;89.66666667
-136.44;4.433;2.107;-16.38812611;-72.19467653;1379.718;-0.090086709;-0.056705239;-0.041221;0;0;0;0;0;0;0;0;0;90
-137.326;4.744;2.137;-16.38812599;-72.19467635;1379.722;-0.062614628;-0.080399603;-0.061498;0;0;0;0;0;0;0;0;0;90.33333333
-138.375;4.212;1.875;-16.38812609;-72.19467605;1379.707;-0.040367425;-0.069808885;-0.053612;0;0;0;0;0;0;0;0;0;90.66666667
-139.201;4.13;2.385;-16.38812617;-72.19467608;1379.669;-0.050025528;-0.044771066;-0.044572;0;0;0;0;0;0;0;0;0;91
-140.013;4.814;2.588;-16.38812621;-72.19467585;1379.652;-0.067284735;-0.067418647;-0.049796;0;0;0;0;0;0;0;0;0;91.33333333
-140.511;5.152;2.639;-16.38812618;-72.19467545;1379.639;-0.107023352;-0.04224912;-0.004545;0;0;0;0;0;0;0;0;0;91.66666667
-140.058;4.946;3.179;-16.38812593;-72.19467529;1379.642;-0.159316711;-0.016276892;0.049351;0;0;0;0;0;0;0;0;0;92
-139.208;4.73;2.808;-16.38812566;-72.19467493;1379.649;-0.182809165;-0.065485296;0.039579;0;0;0;0;0;0;0;0;0;92.33333333
-138.521;4.283;1.644;-16.38812558;-72.19467431;1379.655;-0.185776408;-0.064353522;0.054803;0;0;0;0;0;0;0;0;0;92.66666667
-137.429;4.524;1.911;-16.38812516;-72.19467414;1379.669;-0.189570884;-0.017447342;0.059008;0;0;0;0;0;0;0;0;0;93
-136.659;4.746;2.743;-16.38812486;-72.19467362;1379.675;-0.172920932;-0.031243678;0.02882;0;0;0;0;0;0;0;0;0;93.33333333
-136.177;4.445;2.935;-16.3881247;-72.1946732;1379.672;-0.174613552;-0.063018895;0.039231;0;0;0;0;0;0;0;0;0;93.66666667
-135.302;4.602;2.626;-16.3881245;-72.19467291;1379.686;-0.181351709;-0.068329567;0.04876;0;0;0;0;0;0;0;0;0;94
-134.828;4.619;1.833;-16.38812438;-72.19467236;1379.668;-0.141133998;-0.064540596;0.015488;0;0;0;0;0;0;0;0;0;94.33333333
-134.45;4.162;2.333;-16.38812426;-72.19467207;1379.671;-0.096279045;-0.01776077;0.029833;0;0;0;0;0;0;0;0;0;94.66666667
-134.267;4.087;3.268;-16.38812403;-72.19467201;1379.675;-0.038577687;-0.038425586;-0.012896;0;0;0;0;0;0;0;0;0;95
-134.617;4.475;2.842;-16.38812406;-72.19467191;1379.672;-0.020695687;-0.049608168;-0.025338;0;0;0;0;0;0;0;0;0;95.33333333
-134.89;4.678;2.302;-16.38812416;-72.19467178;1379.666;-0.00016013;-0.018281867;-0.004866;0;0;0;0;0;0;0;0;0;95.66666667
-134.914;4.186;2.647;-16.38812415;-72.19467181;1379.654;0.005420524;0.011352052;-0.002329;0;0;0;0;0;0;0;0;0;96
-135.026;4.2;2.663;-16.38812411;-72.1946719;1379.655;-0.0186412;0.002821057;-0.007503;0;0;0;0;0;0;0;0;0;96.33333333
-135.047;4.839;2.509;-16.38812407;-72.1946718;1379.652;-0.002349459;0.008556908;0.010715;0;0;0;0;0;0;0;0;0;96.66666667
-134.627;4.383;3.228;-16.38812393;-72.19467201;1379.632;0.002602278;0.067412699;0.035718;0;0;0;0;0;0;0;0;0;97
-133.876;3.93;3.37;-16.3881238;-72.19467212;1379.65;-0.028648671;0.056355387;0.055482;0;0;0;0;0;0;0;0;0;97.33333333
-132.84;4.322;3.003;-16.38812366;-72.19467206;1379.662;-0.045900767;0.051695579;0.061535;0;0;0;0;0;0;0;0;0;97.66666667
-131.69;4.611;2.628;-16.38812342;-72.19467215;1379.659;-0.024074108;0.074983057;0.068641;0;0;0;0;0;0;0;0;0;98
-130.498;4.207;2.351;-16.3881233;-72.19467221;1379.654;-0.015603233;0.072589134;0.068114;0;0;0;0;0;0;0;0;0;98.33333333
-129.403;4.104;2.53;-16.3881231;-72.19467232;1379.661;-0.020042584;0.076025801;0.062554;0;0;0;0;0;0;0;0;0;98.66666667
-128.123;4.531;3.041;-16.38812292;-72.19467241;1379.641;-0.018441176;0.087784743;0.080869;0;0;0;0;0;0;0;0;0;99
-126.819;4.559;2.722;-16.38812286;-72.1946724;1379.638;0.019727456;0.046728012;0.071424;0;0;0;0;0;0;0;0;0;99.33333333
-125.602;4.115;2.291;-16.38812281;-72.19467269;1379.654;0.054886067;0.058990843;0.075727;0;0;0;0;0;0;0;0;0;99.66666667
-124.17;4.178;2.468;-16.38812268;-72.19467309;1379.658;0.063923538;0.088169206;0.08628;0;0;0;0;0;0;0;0;0;100
-122.755;4.723;2.499;-16.38812268;-72.19467325;1379.658;0.068825826;0.060400794;0.077161;0;0;0;0;0;0;0;0;0;100.3333333
-121.423;4.855;2.299;-16.38812264;-72.19467359;1379.674;0.075797474;0.048985154;0.077068;0;0;0;0;0;0;0;0;0;100.6666667
-120.175;4.459;2.188;-16.38812249;-72.19467395;1379.675;0.074911939;0.055994636;0.064026;0;0;0;0;0;0;0;0;0;101
-119.258;4.353;1.995;-16.38812258;-72.19467417;1379.666;0.062148858;0.028040243;0.046017;0;0;0;0;0;0;0;0;0;101.3333333
-118.465;4.847;2.276;-16.38812256;-72.19467421;1379.653;0.040646105;0.023371416;0.046724;0;0;0;0;0;0;0;0;0;101.6666667
-117.731;5.036;2.364;-16.38812254;-72.19467431;1379.648;0.044443901;-0.000645824;0.035775;0;0;0;0;0;0;0;0;0;102
-117.267;4.6;1.946;-16.3881228;-72.1946744;1379.609;0.046447168;-0.0231856;0.019305;0;0;0;0;0;0;0;0;0;102.3333333
-116.993;4.45;2.153;-16.38812286;-72.19467452;1379.6;0.033613378;-0.006173118;0.015525;0;0;0;0;0;0;0;0;0;102.6666667
-116.759;4.806;2.584;-16.38812274;-72.19467465;1379.598;0.025866153;-0.01327957;0.009685;0;0;0;0;0;0;0;0;0;103
-116.556;4.728;2.384;-16.38812297;-72.19467462;1379.603;0.031060158;-0.026201686;0.014582;0;0;0;0;0;0;0;0;0;103.3333333
-116.243;4.202;2.414;-16.38812313;-72.19467463;1379.596;0.016212127;-0.020229625;0.021881;0;0;0;0;0;0;0;0;0;103.6666667
-115.849;4.437;2.468;-16.3881231;-72.19467465;1379.606;-0.008709026;-0.018588585;0.019943;0;0;0;0;0;0;0;0;0;104
-115.515;5.202;2.124;-16.38812325;-72.19467447;1379.589;-0.009485269;-0.040293904;0.017053;0;0;0;0;0;0;0;0;0;104.3333333
-115.169;5.097;2.231;-16.38812336;-72.19467442;1379.583;0.006649714;-0.01685516;0.022501;0;0;0;0;0;0;0;0;0;104.6666667
-114.841;4.332;2.596;-16.38812332;-72.1946745;1379.554;0.005682322;-0.015144799;0.017333;0;0;0;0;0;0;0;0;0;105
-114.665;4.285;2.559;-16.3881234;-72.1946744;1379.542;-0.004833311;-0.021094796;0.006377;0;0;0;0;0;0;0;0;0;105.3333333
-114.408;4.609;2.826;-16.38812339;-72.19467441;1379.524;-0.000713669;0.005028293;0.022414;0;0;0;0;0;0;0;0;0;105.6666667
-113.84;4.492;2.894;-16.38812359;-72.19467436;1379.522;-0.008648454;-0.007667582;0.042455;0;0;0;0;0;0;0;0;0;106
-113.16;4.133;2.533;-16.38812364;-72.1946744;1379.522;-0.001467116;-0.010938957;0.034577;0;0;0;0;0;0;0;0;0;106.3333333
-112.588;4.302;2.557;-16.38812359;-72.19467443;1379.525;0.002562292;0.013792458;0.03586;0;0;0;0;0;0;0;0;0;106.6666667
-111.97;4.773;2.717;-16.38812363;-72.19467444;1379.531;0.021374593;0.002675282;0.027621;0;0;0;0;0;0;0;0;0;107
-111.67;4.724;2.5;-16.38812376;-72.19467445;1379.526;0.04797202;-0.019110592;0.009631;0;0;0;0;0;0;0;0;0;107.3333333
-111.535;4.163;2.505;-16.38812373;-72.19467465;1379.524;0.053311246;0.005336121;0.011301;0;0;0;0;0;0;0;0;0;107.6666667
-111.334;4.289;2.702;-16.3881237;-72.19467475;1379.518;0.033697381;0.006182244;0.009906;0;0;0;0;0;0;0;0;0;108
-111.165;4.973;2.39;-16.3881237;-72.1946747;1379.505;0.018371625;-0.030633947;0.004313;0;0;0;0;0;0;0;0;0;108.3333333
-111.064;5.125;1.747;-16.38812388;-72.19467463;1379.492;0.02684333;-0.020418024;0.010116;0;0;0;0;0;0;0;0;0;108.6666667
-110.857;4.507;1.916;-16.38812387;-72.19467488;1379.486;0.035518161;0.008174907;0.01129;0;0;0;0;0;0;0;0;0;109
-110.839;4.468;2.327;-16.38812383;-72.19467499;1379.494;0.021004816;-0.008847866;-0.005865;0;0;0;0;0;0;0;0;0;109.3333333
-110.89;5.079;2.4;-16.3881238;-72.19467499;1379.505;0.014322746;-0.014162275;-0.000289;0;0;0;0;0;0;0;0;0;109.6666667
-110.913;5.004;2.181;-16.38812384;-72.19467503;1379.507;0.029391042;-0.016167938;-0.005524;0;0;0;0;0;0;0;0;0;110
-111.075;4.393;2.037;-16.38812395;-72.19467508;1379.512;0.02870467;-0.006568219;-0.011024;0;0;0;0;0;0;0;0;0;110.3333333
-111.244;4.493;2.315;-16.38812392;-72.19467507;1379.516;0.010188299;0.003737175;-0.009901;0;0;0;0;0;0;0;0;0;110.6666667
-111.397;5.122;2.403;-16.38812398;-72.19467502;1379.492;0.003905843;-0.014098286;-0.011419;0;0;0;0;0;0;0;0;0;111
-111.6;5.058;2.055;-16.3881241;-72.19467501;1379.48;0.010561457;-0.02607017;-0.010839;0;0;0;0;0;0;0;0;0;111.3333333
-111.801;4.402;1.991;-16.38812412;-72.19467502;1379.47;-0.00057836;-0.009014839;-0.008869;0;0;0;0;0;0;0;0;0;111.6666667
-111.906;4.335;2.354;-16.38812403;-72.19467503;1379.474;-0.030340645;-0.002625298;-0.005279;0;0;0;0;0;0;0;0;0;112
-111.997;4.674;2.577;-16.38812414;-72.19467477;1379.455;-0.035168304;-0.023785535;-0.005404;0;0;0;0;0;0;0;0;0;112.3333333
-112.084;4.362;2.44;-16.38812417;-72.19467472;1379.459;-0.025924057;-0.040081327;-0.004242;0;0;0;0;0;0;0;0;0;112.6666667
-112.187;4.233;2.235;-16.38812428;-72.19467458;1379.472;-0.03046274;-0.032682362;-0.006517;0;0;0;0;0;0;0;0;0;113
-112.388;4.485;2.388;-16.38812432;-72.19467451;1379.468;-0.030132359;-0.033796926;-0.014742;0;0;0;0;0;0;0;0;0;113.3333333
-112.563;4.763;2.536;-16.38812444;-72.19467441;1379.452;-0.030953169;-0.042659369;-0.005867;0;0;0;0;0;0;0;0;0;113.6666667
-112.679;4.465;2.368;-16.38812446;-72.19467421;1379.44;-0.034744785;-0.048630124;-0.010136;0;0;0;0;0;0;0;0;0;114
-112.957;4.244;2.243;-16.38812459;-72.19467402;1379.416;-0.042926379;-0.04391359;-0.017404;0;0;0;0;0;0;0;0;0;114.3333333
-113.195;4.357;2.548;-16.38812462;-72.19467397;1379.421;-0.031737675;-0.027232439;-0.008491;0;0;0;0;0;0;0;0;0;114.6666667
-113.34;4.033;2.915;-16.38812458;-72.19467393;1379.378;-0.013506723;-0.020075095;-0.009948;0;0;0;0;0;0;0;0;0;115
-113.46;3.948;2.952;-16.38812462;-72.19467384;1379.373;-0.025491419;-0.024008471;-0.000101;0;0;0;0;0;0;0;0;0;115.3333333
-113.425;4.25;2.766;-16.38812473;-72.1946737;1379.35;-0.0202272;-0.015017738;0.003866;0;0;0;0;0;0;0;0;0;115.6666667
-113.302;4.276;2.6;-16.38812449;-72.19467348;1379.345;-0.020591253;0.003166526;0.009282;0;0;0;0;0;0;0;0;0;116
-113.114;4.282;2.472;-16.38812446;-72.19467341;1379.347;-0.006278628;0.006612492;0.012193;0;0;0;0;0;0;0;0;0;116.3333333
-112.906;4.244;2.529;-16.38812452;-72.19467357;1379.356;0.025296908;0.013288668;0.011391;0;0;0;0;0;0;0;0;0;116.6666667
-112.823;4.33;2.363;-16.38812454;-72.19467362;1379.331;0.037978224;-0.01026298;-0.003271;0;0;0;0;0;0;0;0;0;117
-112.926;4.83;2.067;-16.38812461;-72.19467368;1379.333;0.040344028;-0.015649683;-0.007322;0;0;0;0;0;0;0;0;0;117.3333333
-113.078;5.234;1.956;-16.38812473;-72.19467371;1379.312;0.038617874;-0.015456189;-0.011181;0;0;0;0;0;0;0;0;0;117.6666667
-113.338;4.825;2.1;-16.38812463;-72.19467374;1379.286;0.040998567;-0.010055921;-0.019606;0;0;0;0;0;0;0;0;0;118
-113.914;4.291;2.23;-16.38812484;-72.19467394;1379.262;0.076876827;-0.035184456;-0.04532;0;0;0;0;0;0;0;0;0;118.3333333
-114.937;4.554;2.242;-16.38812508;-72.19467425;1379.286;0.119102749;-0.065340769;-0.07183;0;0;0;0;0;0;0;0;0;118.6666667
-116.252;4.886;1.979;-16.38812544;-72.19467448;1379.289;0.161407011;-0.083675781;-0.074394;0;0;0;0;0;0;0;0;0;119
-117.498;4.714;1.852;-16.38812582;-72.19467456;1379.285;0.178963272;-0.099234497;-0.070466;0;0;0;0;0;0;0;0;0;119.3333333
-118.603;4.528;2.126;-16.3881262;-72.194675;1379.305;0.186929172;-0.088293708;-0.056765;0;0;0;0;0;0;0;0;0;119.6666667
-119.581;4.805;2.385;-16.3881266;-72.19467524;1379.295;0.186769897;-0.100767131;-0.058433;0;0;0;0;0;0;0;0;0;120
-120.527;4.962;2.29;-16.38812709;-72.19467559;1379.276;0.194616275;-0.104948076;-0.049787;0;0;0;0;0;0;0;0;0;120.3333333
-121.366;4.698;2.1;-16.38812777;-72.1946761;1379.284;0.211467058;-0.102840452;-0.046628;0;0;0;0;0;0;0;0;0;120.6666667
-122.058;4.555;2.012;-16.38812819;-72.19467646;1379.288;0.186524376;-0.080663689;-0.030321;0;0;0;0;0;0;0;0;0;121
-122.485;4.885;2.225;-16.38812843;-72.19467666;1379.297;0.143337417;-0.070029324;-0.018051;0;0;0;0;0;0;0;0;0;121.3333333
-122.639;4.941;2.224;-16.38812874;-72.19467694;1379.361;0.108177744;-0.069946337;-0.004629;0;0;0;0;0;0;0;0;0;121.6666667
-122.739;4.676;1.904;-16.38812903;-72.19467706;1379.385;0.057950761;-0.062918218;-0.004038;0;0;0;0;0;0;0;0;0;122
-122.69;4.653;2.077;-16.38812948;-72.19467696;1379.337;0.014869984;-0.04403191;0.005822;0;0;0;0;0;0;0;0;0;122.3333333
-122.67;4.7;2.416;-16.38812958;-72.1946769;1379.336;-0.006820236;-0.051789327;-0.005562;0;0;0;0;0;0;0;0;0;122.6666667
-122.877;4.564;2.244;-16.38812978;-72.19467675;1379.313;-0.017069316;-0.061338849;-0.014733;0;0;0;0;0;0;0;0;0;123
-123.142;4.628;2.039;-16.38812982;-72.19467655;1379.302;-0.026305751;-0.050941626;-0.018002;0;0;0;0;0;0;0;0;0;123.3333333
-123.462;4.942;2.113;-16.38812994;-72.19467635;1379.26;-0.02926473;-0.049706168;-0.019668;0;0;0;0;0;0;0;0;0;123.6666667
-123.758;4.943;2.155;-16.38813003;-72.19467615;1379.243;-0.028139082;-0.056829183;-0.017221;0;0;0;0;0;0;0;0;0;124
-124.08;4.721;2.177;-16.38813009;-72.19467594;1379.214;-0.039882276;-0.060520956;-0.019018;0;0;0;0;0;0;0;0;0;124.3333333
-124.425;4.755;2.16;-16.38813015;-72.19467576;1379.221;-0.039936663;-0.064525016;-0.022608;0;0;0;0;0;0;0;0;0;124.6666667
-124.865;4.622;2.149;-16.38813006;-72.19467553;1379.233;-0.035584854;-0.051202481;-0.024624;0;0;0;0;0;0;0;0;0;125
-125.284;4.504;2.306;-16.38813008;-72.19467538;1379.237;-0.038435126;-0.046848187;-0.023625;0;0;0;0;0;0;0;0;0;125.3333333
-125.736;4.798;2.197;-16.38812997;-72.19467507;1379.232;-0.052163186;-0.060367548;-0.027846;0;0;0;0;0;0;0;0;0;125.6666667
-126.216;5.012;1.783;-16.38813012;-72.194675;1379.229;-0.040141063;-0.065057602;-0.028337;0;0;0;0;0;0;0;0;0;126
-126.668;4.721;1.847;-16.38813024;-72.19467474;1379.22;-0.034884351;-0.05331176;-0.022676;0;0;0;0;0;0;0;0;0;126.3333333
-127.028;4.473;2.289;-16.38813026;-72.19467461;1379.216;-0.043947587;-0.056620254;-0.020479;0;0;0;0;0;0;0;0;0;126.6666667
-127.43;4.881;2.276;-16.3881303;-72.1946746;1379.21;-0.044865681;-0.075598764;-0.028477;0;0;0;0;0;0;0;0;0;127
-127.925;5.092;2.053;-16.38813019;-72.19467427;1379.203;-0.039550856;-0.059647114;-0.030125;0;0;0;0;0;0;0;0;0;127.3333333
-128.437;4.574;2.218;-16.38813026;-72.19467413;1379.199;-0.03669712;-0.04513434;-0.027054;0;0;0;0;0;0;0;0;0;127.6666667
-128.838;4.515;2.283;-16.38813027;-72.19467394;1379.202;-0.055703569;-0.055307268;-0.023923;0;0;0;0;0;0;0;0;0;128
-129.311;4.913;1.946;-16.38813027;-72.19467364;1379.226;-0.052034969;-0.07604665;-0.033241;0;0;0;0;0;0;0;0;0;128.3333333
-129.833;4.817;1.847;-16.38813034;-72.19467346;1379.23;-0.03983028;-0.053668586;-0.026958;0;0;0;0;0;0;0;0;0;128.6666667
-130.294;4.595;2.333;-16.38813043;-72.19467336;1379.21;-0.040195351;-0.042365981;-0.024143;0;0;0;0;0;0;0;0;0;129
-130.757;4.763;2.518;-16.38813019;-72.19467318;1379.201;-0.058709543;-0.057677648;-0.031178;0;0;0;0;0;0;0;0;0;129.3333333
-131.321;4.948;2.027;-16.38813031;-72.19467284;1379.173;-0.05086463;-0.080743439;-0.034196;0;0;0;0;0;0;0;0;0;129.6666667
-131.882;4.647;1.746;-16.38813048;-72.19467269;1379.167;-0.03642925;-0.052888439;-0.030164;0;0;0;0;0;0;0;0;0;130
-132.401;4.535;2.196;-16.38813042;-72.19467248;1379.149;-0.051431894;-0.040777606;-0.028426;0;0;0;0;0;0;0;0;0;130.3333333
-132.883;4.865;2.405;-16.3881304;-72.19467229;1379.146;-0.052532199;-0.068497436;-0.028109;0;0;0;0;0;0;0;0;0;130.6666667
-133.415;4.905;1.974;-16.3881304;-72.194672;1379.15;-0.049210971;-0.079792776;-0.032067;0;0;0;0;0;0;0;0;0;131
-133.965;4.648;1.843;-16.38813043;-72.1946717;1379.158;-0.051505709;-0.055936396;-0.029656;0;0;0;0;0;0;0;0;0;131.3333333
-134.458;4.522;2.325;-16.38813035;-72.19467153;1379.163;-0.055978854;-0.041747608;-0.027852;0;0;0;0;0;0;0;0;0;131.6666667
-134.864;4.791;2.442;-16.38813043;-72.19467135;1379.161;-0.055187708;-0.070703913;-0.025717;0;0;0;0;0;0;0;0;0;132
-135.456;4.905;1.96;-16.38813052;-72.19467102;1379.138;-0.048905885;-0.084976712;-0.039422;0;0;0;0;0;0;0;0;0;132.3333333
-136.049;4.732;1.864;-16.38813052;-72.19467079;1379.127;-0.052017461;-0.050014985;-0.026366;0;0;0;0;0;0;0;0;0;132.6666667
-136.47;4.826;2.221;-16.3881304;-72.19467051;1379.103;-0.071991176;-0.057835063;-0.025454;0;0;0;0;0;0;0;0;0;133
-136.979;4.895;2.14;-16.38813035;-72.19467018;1379.094;-0.072014776;-0.088095954;-0.03248;0;0;0;0;0;0;0;0;0;133.3333333
-137.557;4.653;1.932;-16.38813039;-72.19466986;1379.08;-0.066973264;-0.074340056;-0.032038;0;0;0;0;0;0;0;0;0;133.6666667
-138.03;4.496;2.355;-16.38813034;-72.19466963;1379.092;-0.066583307;-0.044365675;-0.02328;0;0;0;0;0;0;0;0;0;134
-138.51;4.652;2.636;-16.3881302;-72.19466949;1379.097;-0.067670593;-0.068880115;-0.033609;0;0;0;0;0;0;0;0;0;134.3333333
-139.135;4.722;1.944;-16.38813027;-72.19466918;1379.107;-0.055097696;-0.084706082;-0.03618;0;0;0;0;0;0;0;0;0;134.6666667
-139.714;4.683;1.931;-16.3881303;-72.19466889;1379.106;-0.05658312;-0.043837154;-0.028666;0;0;0;0;0;0;0;0;0;135
-140.13;5.001;2.556;-16.38813011;-72.19466884;1379.097;-0.068847602;-0.032868919;-0.025024;0;0;0;0;0;0;0;0;0;135.3333333
-140.704;5.115;2.46;-16.3881301;-72.19466854;1379.069;-0.064603022;-0.073372393;-0.040164;0;0;0;0;0;0;0;0;0;135.6666667
-141.409;4.594;2.068;-16.38813022;-72.19466824;1379.063;-0.054753505;-0.069669579;-0.03578;0;0;0;0;0;0;0;0;0;136
-141.953;4.453;1.913;-16.38813018;-72.19466798;1379.058;-0.066917244;-0.063666183;-0.032363;0;0;0;0;0;0;0;0;0;136.3333333
-142.592;4.83;2.063;-16.38813005;-72.1946678;1379.062;-0.065390558;-0.042347064;-0.043138;0;0;0;0;0;0;0;0;0;136.6666667
-143.239;5.036;2.709;-16.38812989;-72.19466768;1379.056;-0.057972693;-0.034961955;-0.029318;0;0;0;0;0;0;0;0;0;137
-143.688;4.831;2.696;-16.38812984;-72.19466745;1379.062;-0.069730645;-0.053903655;-0.025402;0;0;0;0;0;0;0;0;0;137.3333333
-144.254;4.593;2.024;-16.38812989;-72.19466718;1379.067;-0.074503156;-0.055364308;-0.038371;0;0;0;0;0;0;0;0;0;137.6666667
-144.829;4.537;2.036;-16.38812966;-72.19466698;1379.06;-0.080452905;-0.006358273;-0.025945;0;0;0;0;0;0;0;0;0;138
-145.138;4.864;2.487;-16.38812938;-72.19466693;1379.06;-0.071825127;-0.00324662;-0.017868;0;0;0;0;0;0;0;0;0;138.3333333
-145.58;5.076;2.386;-16.38812932;-72.19466675;1379.056;-0.027860587;-0.038387284;-0.031647;0;0;0;0;0;0;0;0;0;138.6666667
-146.03;4.619;2.102;-16.38812941;-72.19466663;1379.038;0.013742926;-0.024115267;-0.013679;0;0;0;0;0;0;0;0;0;139
-146.228;4.388;2.176;-16.38812935;-72.19466667;1379.033;0.024607963;-0.011467269;-0.013723;0;0;0;0;0;0;0;0;0;139.3333333
-146.595;4.593;2.129;-16.38812947;-72.19466668;1379.017;0.054376696;-0.035570594;-0.027637;0;0;0;0;0;0;0;0;0;139.6666667
-146.976;4.771;2.001;-16.38812976;-72.19466668;1379.017;0.087507355;-0.038141423;-0.01371;0;0;0;0;0;0;0;0;0;140
-147.108;4.764;2.156;-16.38812998;-72.19466689;1379.021;0.113037249;-0.016744898;-0.008098;0;0;0;0;0;0;0;0;0;140.3333333
-147.388;4.777;2.528;-16.38813025;-72.19466709;1379.032;0.117095857;-0.017583371;-0.021558;0;0;0;0;0;0;0;0;0;140.6666667
-147.72;4.929;2.454;-16.3881305;-72.19466726;1379.033;0.11394712;-0.038155456;-0.016625;0;0;0;0;0;0;0;0;0;141
-148.014;4.797;1.886;-16.38813077;-72.19466734;1379.035;0.106297411;-0.026590775;-0.01488;0;0;0;0;0;0;0;0;0;141.3333333
-148.225;4.717;2.208;-16.38813101;-72.19466749;1379.025;0.085295018;0.015695587;-0.012642;0;0;0;0;0;0;0;0;0;141.6666667
-148.329;4.855;2.894;-16.38813114;-72.19466773;1379.027;0.064537245;0.002664087;0.005321;0;0;0;0;0;0;0;0;0;142
-148.136;5.012;2.486;-16.38813135;-72.19466771;1379.005;0.058368877;-0.045366666;0.010309;0;0;0;0;0;0;0;0;0;142.3333333
-148.015;4.83;1.806;-16.38813161;-72.19466774;1379.007;0.079724782;-0.023255031;0.00767;0;0;0;0;0;0;0;0;0;142.6666667
-147.818;4.677;2.199;-16.38813181;-72.19466801;1379.033;0.094850716;-0.003537781;0.014845;0;0;0;0;0;0;0;0;0;143
-147.532;4.971;2.674;-16.38813197;-72.19466809;1379.035;0.091733904;-0.030634383;0.014474;0;0;0;0;0;0;0;0;0;143.3333333
-147.424;5.183;2.524;-16.38813231;-72.19466813;1379.042;0.111467065;-0.053908022;-0.002104;0;0;0;0;0;0;0;0;0;143.6666667
-147.505;4.977;2.5;-16.3881326;-72.19466835;1379.056;0.117381573;-0.030240027;-0.002656;0;0;0;0;0;0;0;0;0;144
-147.418;4.911;2.459;-16.38813285;-72.19466843;1379.048;0.109298651;-0.052781823;0.003408;0;0;0;0;0;0;0;0;0;144.3333333
-147.627;5.095;2.089;-16.38813332;-72.19466831;1379.044;0.107279584;-0.073106581;-0.022211;0;0;0;0;0;0;0;0;0;144.6666667
-147.911;5.133;2.221;-16.38813365;-72.1946683;1379.038;0.104609456;-0.061071668;-0.008818;0;0;0;0;0;0;0;0;0;145
-148.048;5.119;2.613;-16.38813377;-72.19466842;1379.031;0.08268334;-0.056990511;-0.007242;0;0;0;0;0;0;0;0;0;145.3333333
-148.081;5.137;2.54;-16.38813405;-72.19466841;1379.021;0.058398818;-0.073700986;0.001788;0;0;0;0;0;0;0;0;0;145.6666667
-148.126;5.149;2.199;-16.38813432;-72.19466829;1379.035;0.036614968;-0.078516866;-0.002143;0;0;0;0;0;0;0;0;0;146
-148.054;5.221;2.261;-16.38813443;-72.19466822;1379.054;0.02345007;-0.058780841;0.008371;0;0;0;0;0;0;0;0;0;146.3333333
-147.999;5.098;2.519;-16.38813454;-72.19466813;1379.055;0.024914742;-0.065804117;0.00079;0;0;0;0;0;0;0;0;0;146.6666667
-147.806;5.03;2.809;-16.38813465;-72.19466811;1379.066;0.019711949;-0.078237952;0.019418;0;0;0;0;0;0;0;0;0;147
-147.576;5.035;2.401;-16.38813474;-72.19466775;1379.069;0.017198592;-0.106118025;0.008001;0;0;0;0;0;0;0;0;0;147.3333333
-147.352;5.062;2.189;-16.38813497;-72.19466765;1379.068;0.032988824;-0.072520451;0.015953;0;0;0;0;0;0;0;0;0;147.6666667
-147.052;5.242;2.659;-16.38813517;-72.19466783;1379.072;0.040660738;-0.065070528;0.014946;0;0;0;0;0;0;0;0;0;148
-146.929;5.358;2.658;-16.38813535;-72.19466776;1379.073;0.044446176;-0.082154445;-0.00425;0;0;0;0;0;0;0;0;0;148.3333333
-147.087;5.183;2.245;-16.38813554;-72.19466761;1379.065;0.049912951;-0.099618328;-0.008108;0;0;0;0;0;0;0;0;0;148.6666667
-147.052;4.903;2.236;-16.38813579;-72.19466756;1379.054;0.065089806;-0.077124705;0.012355;0;0;0;0;0;0;0;0;0;149
-146.896;5.031;2.439;-16.388136;-72.1946675;1379.055;0.067595024;-0.09853441;0.002821;0;0;0;0;0;0;0;0;0;149.3333333
-146.838;5.015;2.231;-16.38813627;-72.19466737;1379.063;0.080260547;-0.127113786;0.007882;0;0;0;0;0;0;0;0;0;149.6666667
-146.614;4.746;1.891;-16.38813673;-72.19466726;1379.084;0.081952641;-0.123397615;0.017036;0;0;0;0;0;0;0;0;0;150
-146.394;5.129;2.131;-16.38813702;-72.19466715;1379.095;0.084029835;-0.108871684;0.003981;0;0;0;0;0;0;0;0;0;150.3333333
-146.486;5.488;2.575;-16.38813734;-72.19466701;1379.1;0.102594315;-0.131744731;-0.0138;0;0;0;0;0;0;0;0;0;150.6666667
-146.641;5.325;2.558;-16.38813789;-72.19466686;1379.081;0.095292434;-0.143238532;-0.001295;0;0;0;0;0;0;0;0;0;151
-146.617;5.23;2.311;-16.38813816;-72.19466662;1379.076;0.040252906;-0.133310377;0.006893;0;0;0;0;0;0;0;0;0;151.3333333
-146.239;5.233;2.308;-16.3881384;-72.19466642;1379.078;-0.005599257;-0.123269293;0.037978;0;0;0;0;0;0;0;0;0;151.6666667
-145.454;5.077;2.179;-16.38813858;-72.19466614;1379.095;-0.042137965;-0.126806935;0.050808;0;0;0;0;0;0;0;0;0;152
-144.609;4.815;2.236;-16.38813869;-72.19466581;1379.098;-0.065746049;-0.106705876;0.044166;0;0;0;0;0;0;0;0;0;152.3333333
-143.95;4.981;2.567;-16.38813861;-72.19466544;1379.116;-0.085241631;-0.112797969;0.033495;0;0;0;0;0;0;0;0;0;152.6666667
-143.506;5.056;2.335;-16.38813857;-72.19466511;1379.138;-0.071870337;-0.126358822;0.011084;0;0;0;0;0;0;0;0;0;153
-143.478;4.854;2.083;-16.38813863;-72.19466468;1379.148;-0.069001504;-0.101500438;0.003429;0;0;0;0;0;0;0;0;0;153.3333333
-143.299;5.048;2.569;-16.38813856;-72.19466441;1379.145;-0.083350219;-0.087498104;0.010528;0;0;0;0;0;0;0;0;0;153.6666667
-143.27;5.184;2.449;-16.38813849;-72.19466407;1379.143;-0.092942141;-0.1224381;-0.008624;0;0;0;0;0;0;0;0;0;154
-143.381;4.957;1.882;-16.38813855;-72.19466364;1379.145;-0.06668698;-0.12345228;0.010985;0;0;0;0;0;0;0;0;0;154.3333333
-142.822;5.116;2.241;-16.38813854;-72.19466342;1379.196;-0.041859779;-0.08982348;0.039916;0;0;0;0;0;0;0;0;0;154.6666667
-142.233;5.017;2.755;-16.38813858;-72.19466323;1379.243;-0.026893609;-0.102025503;0.034679;0;0;0;0;0;0;0;0;0;155
-141.589;4.761;2.469;-16.38813868;-72.19466278;1379.232;-0.056435209;-0.133936266;0.038477;0;0;0;0;0;0;0;0;0;155.3333333
-140.881;5.134;1.924;-16.38813881;-72.19466231;1379.181;-0.075451742;-0.128042501;0.045079;0;0;0;0;0;0;0;0;0;155.6666667
-140.067;5.5;1.88;-16.38813896;-72.19466194;1379.188;-0.045406738;-0.122954403;0.03848;0;0;0;0;0;0;0;0;0;156
-139.652;4.895;2.573;-16.38813906;-72.19466176;1379.184;0.015270425;-0.114361289;0.015148;0;0;0;0;0;0;0;0;0;156.3333333
-139.484;4.461;2.873;-16.38813921;-72.19466172;1379.182;0.019510693;-0.140649513;0.007848;0;0;0;0;0;0;0;0;0;156.6666667
-139.49;5.192;2.361;-16.38813952;-72.19466126;1379.13;0.022625039;-0.154244464;-0.014745;0;0;0;0;0;0;0;0;0;157
-139.777;5.36;2.258;-16.38813984;-72.19466104;1379.131;0.061245204;-0.112907443;-0.01694;0;0;0;0;0;0;0;0;0;157.3333333
-140.051;4.996;3.28;-16.38814001;-72.19466119;1379.122;0.06630679;-0.079693975;-0.010607;0;0;0;0;0;0;0;0;0;157.6666667
-140.24;4.978;3.089;-16.38814038;-72.19466112;1379.134;0.068030175;-0.138888079;-0.011742;0;0;0;0;0;0;0;0;0;158
-140.352;5.101;1.993;-16.38814085;-72.19466077;1379.146;0.076298104;-0.130512112;0.004284;0;0;0;0;0;0;0;0;0;158.3333333
-140.04;5.128;2.339;-16.38814121;-72.19466072;1379.164;0.092435061;-0.077229257;0.02793;0;0;0;0;0;0;0;0;0;158.6666667
-139.41;5.325;2.785;-16.38814145;-72.19466077;1379.182;0.072992876;-0.116255773;0.039796;0;0;0;0;0;0;0;0;0;159
-138.749;5.255;2.491;-16.38814183;-72.19466075;1379.191;0.053354892;-0.111327116;0.043741;0;0;0;0;0;0;0;0;0;159.3333333
-137.937;5.089;2.711;-16.38814212;-72.19466067;1379.185;0.046950183;-0.078389113;0.052012;0;0;0;0;0;0;0;0;0;159.6666667
-137.198;5.137;2.72;-16.38814239;-72.19466046;1379.18;0.080591344;-0.110021445;0.025542;0;0;0;0;0;0;0;0;0;160
-137.05;5.245;2.507;-16.38814285;-72.19466045;1379.179;0.128067387;-0.115485376;-0.000518;0;0;0;0;0;0;0;0;0;160.3333333
-137.072;5.146;2.614;-16.38814333;-72.19466057;1379.195;0.156917509;-0.110130168;-0.00562;0;0;0;0;0;0;0;0;0;160.6666667
-137.199;4.91;2.395;-16.38814376;-72.19466074;1379.194;0.147495373;-0.115837416;-0.004278;0;0;0;0;0;0;0;0;0;161
-137.248;4.804;2.03;-16.38814418;-72.19466071;1379.192;0.111579279;-0.109430205;-0.001111;0;0;0;0;0;0;0;0;0;161.3333333
-137.074;5.047;2.349;-16.38814454;-72.19466074;1379.205;0.076333207;-0.071456901;0.024026;0;0;0;0;0;0;0;0;0;161.6666667
-136.451;5.141;2.545;-16.38814477;-72.1946606;1379.209;0.040813208;-0.087871776;0.039463;0;0;0;0;0;0;0;0;0;162
-135.849;4.74;2.263;-16.38814518;-72.1946605;1379.197;0.027225238;-0.107392554;0.033796;0;0;0;0;0;0;0;0;0;162.3333333
-135.268;4.834;2.171;-16.38814546;-72.19466042;1379.197;0.008283922;-0.083191856;0.033249;0;0;0;0;0;0;0;0;0;162.6666667
-134.621;5.25;2.475;-16.38814557;-72.19466021;1379.196;-0.006492832;-0.064952995;0.038472;0;0;0;0;0;0;0;0;0;163
-134.053;5.035;2.822;-16.38814573;-72.19466001;1379.19;0.001899922;-0.094041593;0.024616;0;0;0;0;0;0;0;0;0;163.3333333
-133.851;4.679;2.51;-16.38814587;-72.19465986;1379.166;-0.004079436;-0.099258239;0.008596;0;0;0;0;0;0;0;0;0;163.6666667
-133.552;5.029;2.107;-16.38814606;-72.19465954;1379.178;-0.023982389;-0.079096415;0.022433;0;0;0;0;0;0;0;0;0;164
-133.212;5.279;2.35;-16.38814613;-72.19465937;1379.166;-0.020007967;-0.07050016;0.012249;0;0;0;0;0;0;0;0;0;164.3333333
-133.094;4.899;2.588;-16.38814622;-72.19465926;1379.165;-0.008679501;-0.077956584;0.004854;0;0;0;0;0;0;0;0;0;164.6666667
-133.026;4.86;2.288;-16.38814639;-72.19465912;1379.172;-0.010049934;-0.09248188;0.001463;0;0;0;0;0;0;0;0;0;165
-133.092;5.047;2.194;-16.38814654;-72.19465891;1379.183;0.004318207;-0.083843061;-0.006772;0;0;0;0;0;0;0;0;0;165.3333333
-133.173;4.982;2.481;-16.38814671;-72.19465883;1379.172;0.01506155;-0.077695228;-0.001313;0;0;0;0;0;0;0;0;0;165.6666667
-133.158;4.92;2.566;-16.3881469;-72.19465871;1379.17;0.019706866;-0.087395255;0.00654;0;0;0;0;0;0;0;0;0;166
-132.875;5.085;2.358;-16.38814711;-72.19465861;1379.157;0.041889632;-0.108572255;0.025193;0;0;0;0;0;0;0;0;0;166.3333333
-132.306;5.197;2.223;-16.38814753;-72.19465852;1379.154;0.06315376;-0.097204733;0.038945;0;0;0;0;0;0;0;0;0;166.6666667
-131.467;5.007;2.369;-16.38814774;-72.19465861;1379.141;0.046000367;-0.078868654;0.059398;0;0;0;0;0;0;0;0;0;167
-130.323;4.996;2.433;-16.38814794;-72.19465852;1379.15;0.022194656;-0.100833481;0.068674;0;0;0;0;0;0;0;0;0;167.3333333
-129.261;5.117;2.166;-16.38814823;-72.19465832;1379.142;0.019073876;-0.104961513;0.052941;0;0;0;0;0;0;0;0;0;167.6666667
-128.317;5.03;2.111;-16.38814854;-72.19465822;1379.145;0.021787737;-0.094962362;0.060742;0;0;0;0;0;0;0;0;0;168
-127.381;4.953;2.51;-16.3881487;-72.19465812;1379.153;0.037974117;-0.104535853;0.037282;0;0;0;0;0;0;0;0;0;168.3333333
